,City,Cloudiness,Country,Date,Humidity,Lat,Lng,Max Temp (F),Wind Speed
0,punta arenas,40,CL,1570715877,74,-53.16,-70.91,37.4,31.09
1,rikitea,79,PF,1570715878,70,-23.12,-134.97,68.92,10.31
2,georgetown,75,GY,1570715878,79,6.8,-58.16,86.0,9.17
3,jamestown,7,AU,1570715878,51,-33.21,138.6,49.17,9.98
4,khandbari,61,NP,1570715878,94,27.38,87.21,49.19,1.3
5,khatanga,69,RU,1570715878,86,71.98,102.47,14.59,11.65
6,bluff,36,AU,1570715878,89,-23.58,149.07,62.01,11.25
7,busselton,23,AU,1570715879,65,-33.64,115.35,60.01,9.25
8,carnarvon,100,ZA,1570715879,7,-30.97,22.13,71.82,9.05
9,mehamn,75,NO,1570715879,80,71.03,27.85,41.0,4.7
10,luena,97,AO,1570715879,75,-11.78,19.91,69.33,5.8
11,namatanai,9,PG,1570715879,73,-3.66,152.44,82.42,6.67
12,ushuaia,100,AR,1570715880,91,-54.81,-68.31,32.0,35.57
13,sidi ali,0,DZ,1570715880,26,36.1,0.42,86.56,6.84
14,chokurdakh,99,RU,1570715881,89,70.62,147.9,12.07,3.98
15,sitka,0,US,1570715881,82,37.17,-99.65,41.0,32.01
16,bambous virieux,75,MU,1570715881,60,-20.34,57.76,75.2,17.22
17,lorengau,20,PG,1570715882,75,-2.02,147.27,82.71,5.52
18,port alfred,44,ZA,1570715882,77,-33.59,26.89,63.0,5.01
19,richards bay,83,ZA,1570715882,70,-28.77,32.06,66.76,24.63
20,maltahohe,0,NA,1570715882,10,-24.83,16.98,81.19,13.14
21,ostrovnoy,91,RU,1570715882,93,68.05,39.51,30.63,8.62
22,bredasdorp,14,ZA,1570715883,42,-34.53,20.04,64.4,16.11
23,waipawa,100,NZ,1570715883,94,-39.94,176.59,53.01,7.14
24,yellowknife,75,CA,1570715883,82,62.45,-114.38,32.0,9.17
25,saint-philippe,1,CA,1570715883,100,45.36,-73.48,52.0,10.99
26,marsa matruh,40,EG,1570715884,65,31.35,27.25,78.8,4.7
27,castro,90,CL,1570715884,100,-42.48,-73.76,50.0,13.87
28,san antonio,100,CL,1570715884,51,-33.58,-71.61,68.0,5.61
29,chimbote,96,PE,1570715884,64,-9.08,-78.59,67.84,8.19
30,fasa,40,IR,1570715885,20,28.94,53.65,87.8,5.17
31,albany,1,US,1570715885,44,42.65,-73.75,57.2,9.17
32,clyde river,90,CA,1570715885,100,70.47,-68.59,33.8,29.97
33,khandyga,100,RU,1570715885,86,62.65,135.58,25.05,5.14
34,mahebourg,75,MU,1570715885,60,-20.41,57.7,75.2,17.22
35,tiksi,96,RU,1570715885,93,71.64,128.87,16.59,3.69
36,upernavik,0,GL,1570715886,70,72.79,-56.15,30.22,7.37
37,soure,0,PT,1570715886,46,40.06,-8.63,84.0,8.05
38,vaini,40,IN,1570715886,83,15.34,74.49,73.4,4.7
39,kodiak,90,US,1570715887,100,39.95,-94.76,62.6,11.41
40,mongo,99,CD,1570715887,67,-5.62,14.6,81.57,6.31
41,srednekolymsk,100,RU,1570715887,75,67.46,153.71,15.58,3.84
42,atuona,0,PF,1570715887,75,-9.8,-139.03,78.4,12.92
43,faanui,100,PF,1570715887,80,-16.48,-151.75,75.34,17.79
44,palana,100,RU,1570715888,91,59.08,159.95,34.0,4.46
45,perigueux,75,FR,1570715888,56,45.18,0.72,75.0,3.36
46,kalmunai,100,LK,1570715888,78,7.42,81.82,83.19,20.24
47,cape town,27,ZA,1570715888,43,-33.93,18.42,69.8,13.87
48,hilo,75,US,1570715888,88,19.71,-155.08,75.2,6.93
49,amahai,100,ID,1570715889,84,-3.31,129.0,79.92,8.61
50,dospat,99,BG,1570715889,58,41.65,24.16,66.61,5.74
51,goderich,88,CA,1570715889,88,43.74,-81.71,53.01,10.9
52,mar del plata,100,AR,1570715889,37,-46.43,-67.52,57.67,18.37
53,madera,1,US,1570715890,70,36.96,-120.06,53.01,3.74
54,hun,20,BE,1570715890,72,50.34,4.87,62.01,14.99
55,cabo san lucas,5,MX,1570715890,73,22.89,-109.91,75.0,3.86
56,mogok,100,MM,1570715890,98,22.92,96.51,66.54,1.89
57,the valley,20,AI,1570715890,62,18.22,-63.06,88.0,2.24
58,severo-kurilsk,83,RU,1570715891,95,50.68,156.12,41.92,11.63
59,kapaa,20,US,1570715891,83,22.08,-159.32,80.6,9.17
60,tuy hoa,32,VN,1570715891,78,13.08,109.3,81.82,6.7
61,saiha,100,IN,1570715891,98,22.49,92.98,65.97,2.52
62,angoram,15,PG,1570715891,92,-4.06,144.07,73.94,0.48
63,san cristobal,35,HN,1570715892,70,14.68,-86.92,77.72,2.1
64,adrar,0,DZ,1570715892,22,27.87,-0.29,89.6,20.8
65,norman wells,75,CA,1570715892,70,65.28,-126.83,32.0,3.36
66,barrow,33,AR,1570715892,37,-38.31,-60.23,73.71,14.93
67,mataura,100,NZ,1570715892,91,-46.19,168.86,42.01,14.0
68,hobart,90,AU,1570715892,81,-42.88,147.33,48.2,3.36
69,walvis bay,12,NA,1570715893,87,-22.95,14.51,63.0,5.99
70,cherskiy,66,RU,1570715893,76,68.75,161.3,12.54,5.97
71,pangnirtung,90,CA,1570715893,80,66.15,-65.72,39.2,3.36
72,puerto ayora,20,EC,1570715893,72,-0.74,-90.35,68.0,11.41
73,maralal,84,KE,1570715893,58,1.1,36.7,71.92,19.13
74,tuatapere,100,NZ,1570715894,91,-46.13,167.69,42.01,14.0
75,quatre cocos,75,MU,1570715894,60,-20.21,57.76,75.2,17.22
76,port elizabeth,90,US,1570715894,62,39.31,-74.98,60.01,10.29
77,mnogovershinnyy,100,RU,1570715894,83,53.94,139.92,37.4,9.66
78,kushima,85,JP,1570715894,93,31.5,131.29,62.01,4.0
79,east london,40,ZA,1570715894,52,-33.02,27.91,64.4,11.41
80,hermanus,44,ZA,1570715895,71,-34.42,19.24,60.69,24.41
81,kargasok,100,RU,1570715895,66,59.06,80.87,36.34,15.82
82,kingsport,75,US,1570715895,72,36.55,-82.56,66.99,4.7
83,ahipara,100,NZ,1570715895,100,-35.17,173.16,61.0,13.88
84,avarua,92,CK,1570715895,77,-21.21,-159.78,69.8,8.05
85,kefamenanu,35,ID,1570715896,93,-9.45,124.48,66.06,2.96
86,lebu,20,ET,1570715896,43,8.96,38.73,69.8,13.87
87,provideniya,0,RU,1570715896,76,64.42,-173.23,26.2,3.34
88,lata,26,IN,1570715896,78,30.78,78.62,29.25,3.21
89,balad,100,ID,1570715896,89,-6.76,108.42,69.37,4.42
90,margate,90,AU,1570715897,81,-43.03,147.26,48.2,3.36
91,tsaghkahovit,0,AM,1570715897,52,40.64,44.22,52.48,6.77
92,saint anthony,1,US,1570715897,61,43.97,-111.68,17.6,3.36
93,harper,90,US,1570715897,73,30.3,-99.24,77.0,12.75
94,pevek,93,RU,1570715897,81,69.7,170.27,22.14,14.31
95,hithadhoo,100,MV,1570715898,79,-0.6,73.08,81.68,13.8
96,moberly,90,US,1570715898,93,39.42,-92.44,63.0,6.93
97,umm kaddadah,88,SD,1570715898,23,13.6,26.69,95.95,15.02
98,new norfolk,90,AU,1570715898,81,-42.78,147.06,48.2,3.36
99,nenjiang,0,CN,1570715899,38,49.17,125.23,31.6,7.05
100,bontang,100,ID,1570715899,84,0.12,117.47,80.89,8.09
101,port lincoln,0,AU,1570715899,88,-34.72,135.86,51.87,12.93
102,narsaq,5,GL,1570715900,59,60.91,-46.05,37.4,2.24
103,aguimes,20,ES,1570715900,65,27.91,-15.45,78.8,18.34
104,rousinov,75,CZ,1570715900,82,49.2,16.88,61.0,13.87
105,piskivka,75,UA,1570715900,44,50.7,29.59,60.8,8.95
106,airai,35,TL,1570715901,34,-8.93,125.41,64.96,4.97
107,butaritari,98,KI,1570715901,62,3.07,172.79,84.34,9.1
108,boundiali,100,CI,1570715901,77,9.53,-6.48,82.53,3.27
109,port macquarie,40,AU,1570715901,93,-31.43,152.91,55.99,1.12
110,puerto del rosario,20,ES,1570715902,65,28.5,-13.86,77.0,9.17
111,te anau,100,NZ,1570715902,93,-45.41,167.72,42.04,12.04
112,tasiilaq,75,GL,1570715902,80,65.61,-37.64,35.6,5.82
113,ribeira grande,20,PT,1570715902,60,38.52,-28.7,73.4,10.29
114,xichang,96,CN,1570715903,97,27.88,102.25,48.7,4.39
115,aktau,0,KZ,1570715903,29,43.65,51.16,62.6,11.18
116,kahului,40,US,1570715903,100,20.89,-156.47,78.01,12.75
117,longyearbyen,20,NO,1570715903,73,78.22,15.63,26.6,18.34
118,deputatskiy,100,RU,1570715904,95,69.3,139.9,9.73,0.7
119,saskylakh,97,RU,1570715904,94,71.97,114.09,11.05,12.91
120,chihuahua,0,MX,1570715904,57,28.66,-106.08,67.05,6.91
121,salalah,20,OM,1570715904,79,17.01,54.1,84.2,12.75
122,la ronge,20,CA,1570715905,92,55.1,-105.3,23.0,5.82
123,chapais,1,CA,1570715905,81,49.78,-74.86,42.8,4.7
124,codrington,75,AU,1570715905,87,-28.95,153.24,59.0,3.87
125,ilulissat,5,GL,1570715905,46,69.22,-51.1,28.4,17.22
126,pisco,90,PE,1570715905,30,-13.71,-76.2,71.6,3.36
127,coquimbo,90,CL,1570715905,87,-29.95,-71.34,53.6,5.82
128,vilhena,86,BR,1570715906,78,-12.74,-60.15,78.8,12.75
129,kozulka,75,UA,1570715906,54,50.04,23.8,59.0,11.18
130,salinopolis,90,BR,1570715906,77,-0.61,-47.36,80.96,21.22
131,oktyabrskoye,0,RU,1570715906,45,56.73,85.44,39.99,11.97
132,saldanha,0,PT,1570715906,31,41.42,-6.55,73.11,5.38
133,swan hill,16,AU,1570715907,91,-35.34,143.56,42.08,7.42
134,victoria,75,BN,1570715907,83,5.28,115.24,80.6,6.17
135,lhokseumawe,53,ID,1570715907,90,5.18,97.15,71.02,2.47
136,hay river,90,CA,1570715907,100,60.82,-115.79,30.2,4.7
137,thompson,75,CA,1570715907,73,55.74,-97.86,26.6,3.36
138,qaanaaq,99,GL,1570715908,70,77.48,-69.36,23.29,11.63
139,panzhihua,50,CN,1570715908,78,26.59,101.72,63.3,2.54
140,key west,90,US,1570715908,93,47.93,-96.78,37.99,13.87
141,ponta delgada,20,PT,1570715908,53,37.73,-25.67,71.6,6.93
142,miguel calmon,89,BR,1570715909,31,-11.43,-40.6,86.43,9.96
143,waitara,100,NZ,1570715909,95,-39.0,174.24,52.0,13.0
144,port hedland,0,AU,1570715909,78,-20.31,118.58,75.2,6.93
145,hasaki,75,JP,1570715909,100,35.73,140.83,64.4,14.99
146,katangli,0,RU,1570715910,78,51.71,143.23,49.05,9.2
147,jumla,0,NP,1570715910,93,29.28,82.18,44.13,3.32
148,laguna,75,BZ,1570715910,94,16.17,-88.94,78.8,1.53
149,arraial do cabo,75,BR,1570715910,88,-22.97,-42.02,73.4,4.7
150,padang,64,ID,1570715910,96,-0.92,100.36,67.71,1.46
151,temyasovo,0,RU,1570715910,86,52.99,58.1,32.56,6.66
152,kruisfontein,17,ZA,1570715911,60,-34.0,24.73,60.82,16.57
153,lesosibirsk,0,RU,1570715911,62,58.22,92.49,26.47,5.12
154,sovetskiy,100,RU,1570715911,96,56.76,48.47,41.47,6.53
155,vao,100,EE,1570715911,93,59.1,26.19,46.18,1.98
156,rocha,55,UY,1570715912,63,-34.48,-54.34,78.66,12.55
157,mount isa,0,AU,1570715912,11,-20.73,139.49,69.8,6.93
158,pitimbu,75,BR,1570715912,62,-7.47,-34.81,84.2,18.34
159,honiara,40,SB,1570715912,94,-9.43,159.96,77.0,2.04
160,mersing,11,MY,1570715912,70,2.43,103.84,84.61,7.4
161,eureka,1,US,1570715913,29,40.8,-124.16,55.99,4.7
162,mitu,0,IR,1570715913,58,36.2,46.09,55.36,2.44
163,kidal,87,ML,1570715913,26,18.44,1.41,96.82,17.09
164,presidencia roque saenz pena,0,AR,1570715913,30,-26.79,-60.44,93.07,11.37
165,nanortalik,0,GL,1570715913,71,60.14,-45.24,39.16,9.27
166,nikolskoye,90,RU,1570715914,87,59.7,30.79,46.0,6.71
167,aquiraz,40,BR,1570715914,52,-3.9,-38.39,87.8,16.11
168,coihaique,75,CL,1570715914,70,-45.58,-72.07,48.2,9.17
169,marzuq,59,YE,1570715914,32,14.4,46.47,82.44,9.13
170,padampur,0,IN,1570715915,21,29.71,73.62,85.42,4.02
171,tessalit,93,ML,1570715915,25,20.2,1.01,95.85,16.5
172,nhulunbuy,53,AU,1570715915,88,-12.18,136.78,71.6,1.12
173,chumikan,0,RU,1570715915,57,54.72,135.31,31.57,22.25
174,lahaina,40,US,1570715915,100,20.87,-156.68,78.01,12.75
175,lavrentiya,0,RU,1570715916,71,65.58,-170.99,31.19,9.18
176,tual,100,ID,1570715916,87,-5.67,132.75,78.53,9.32
177,lagoa,0,PT,1570715916,57,37.14,-8.45,82.0,10.29
178,cidreira,0,BR,1570715916,86,-30.17,-50.22,67.73,9.65
179,fortuna,1,US,1570715917,29,40.6,-124.16,55.99,4.7
180,talnakh,69,RU,1570715917,63,69.49,88.39,15.69,11.87
181,bethel,90,US,1570715917,100,60.79,-161.76,37.4,5.82
182,kalianget,40,ID,1570715917,66,-7.35,109.91,84.2,3.36
183,leningradskiy,0,RU,1570715917,71,69.38,178.42,22.12,8.49
184,barra patuca,100,HN,1570715918,83,15.8,-84.28,80.53,7.82
185,torbay,40,CA,1570715918,81,47.66,-52.73,53.01,6.93
186,ketchikan,90,US,1570715918,93,55.34,-131.65,44.6,3.36
187,bud,100,NO,1570715918,66,62.91,6.91,54.0,5.82
188,khani,0,GE,1570715918,47,41.96,42.96,78.8,14.99
189,guerrero negro,9,MX,1570715918,78,27.97,-114.04,65.41,10.44
190,komsomolskiy,100,RU,1570715919,98,67.55,63.78,33.67,12.07
191,punta de piedra,100,VE,1570715919,94,7.62,-71.49,75.38,1.62
192,fatick,53,SN,1570715919,48,14.33,-16.4,90.81,2.61
193,contai,61,IN,1570715919,86,21.78,87.75,78.71,4.62
194,beringovskiy,99,RU,1570715919,66,63.05,179.32,32.04,2.14
195,bahia blanca,68,AR,1570715920,33,-38.72,-62.27,73.15,13.05
196,pringsewu,98,ID,1570715920,98,-5.36,104.98,70.23,2.99
197,verkhnyaya toyma,96,RU,1570715920,93,62.24,45.0,35.92,4.73
198,fuerte olimpo,0,BR,1570715920,27,-21.04,-57.87,98.83,6.76
199,evensk,100,RU,1570715920,81,61.92,159.24,28.99,10.06
200,samarai,85,PG,1570715921,94,-10.62,150.67,73.31,4.75
201,rognan,20,NO,1570715921,56,67.1,15.4,44.01,12.75
202,chuy,69,UY,1570715921,67,-33.69,-53.46,74.23,6.19
203,vysokogornyy,99,RU,1570715921,96,50.1,139.13,46.44,6.52
204,parabel,100,RU,1570715921,66,58.71,81.5,35.85,9.48
205,ponta do sol,100,BR,1570715921,73,-20.63,-46.0,73.26,7.74
206,fort nelson,20,CA,1570715922,86,58.81,-122.69,26.6,4.7
207,yar-sale,100,RU,1570715922,87,66.83,70.83,44.94,19.75
208,sioux lookout,90,CA,1570715922,100,50.1,-91.92,44.6,4.7
209,tres arroyos,40,AR,1570715922,34,-38.38,-60.28,75.42,15.1
210,hemnesberget,75,NO,1570715922,60,66.23,13.61,44.6,2.24
211,gigmoto,33,PH,1570715923,78,13.78,124.39,81.9,11.26
212,canguaretama,40,BR,1570715923,70,-6.38,-35.14,84.2,19.46
213,prince rupert,20,CA,1570715923,93,54.32,-130.32,41.0,4.7
214,nome,1,US,1570715923,88,30.04,-94.42,82.99,9.89
215,iqaluit,90,CA,1570715923,93,63.75,-68.52,35.6,11.41
216,lac du bonnet,100,CA,1570715924,100,50.25,-96.06,35.01,12.16
217,saint-joseph,15,FR,1570715924,64,43.56,6.97,77.0,5.82
218,kavieng,0,PG,1570715924,71,-2.57,150.8,83.75,6.11
219,havoysund,40,NO,1570715924,86,71.0,24.66,39.2,11.41
220,port-cartier,5,CA,1570715924,66,50.03,-66.88,48.2,3.36
221,trimbak,0,IN,1570715925,70,19.93,73.53,74.26,3.27
222,yasnogorsk,100,RU,1570715925,93,54.48,37.69,50.04,19.63
223,grindavik,75,IS,1570715925,70,63.84,-22.43,44.6,17.22
224,altamira,75,BR,1570715925,70,-3.2,-52.21,84.2,9.17
225,tuktoyaktuk,75,CA,1570715926,77,69.44,-133.03,32.0,3.36
226,syamzha,85,RU,1570715926,95,60.02,41.06,36.16,5.37
227,vestmannaeyjar,20,IS,1570715926,61,63.44,-20.27,46.4,19.46
228,matara,72,BI,1570715926,71,-3.48,29.48,69.22,2.01
229,dikson,99,RU,1570715926,83,73.51,80.55,29.28,24.68
230,kitimat,20,CA,1570715926,92,54.02,-128.69,28.4,2.24
231,astoria,1,US,1570715927,86,46.19,-123.83,43.0,4.7
232,plettenberg bay,0,ZA,1570715927,72,-34.05,23.37,59.5,14.63
233,tokur,67,RU,1570715927,91,53.13,132.9,22.71,5.0
234,balclutha,100,NZ,1570715927,87,-46.24,169.74,45.0,25.01
235,kieta,0,PG,1570715928,81,-6.22,155.63,79.77,5.81
236,mount gambier,100,AU,1570715928,93,-37.83,140.78,42.8,3.22
237,tugulym,100,RU,1570715928,74,57.06,64.64,46.0,5.92
238,axim,100,GH,1570715928,68,4.87,-2.24,83.61,10.22
239,karatau,100,KZ,1570715928,66,43.18,70.46,52.0,4.0
240,paracatu,59,BR,1570715929,33,-17.22,-46.87,88.36,9.41
241,calama,0,CL,1570715929,6,-22.46,-68.93,71.01,9.17
242,constitucion,20,MX,1570715929,100,23.99,-104.67,60.01,3.36
243,iwanai,100,JP,1570715929,82,42.97,140.51,51.48,6.37
244,manzanillo,90,MX,1570715930,88,19.05,-104.32,78.8,6.93
245,camocim,1,BR,1570715930,30,-2.9,-40.84,97.07,9.29
246,cururupu,100,BR,1570715930,60,-1.82,-44.87,84.33,7.31
247,port-gentil,75,GA,1570715930,88,-0.72,8.78,80.6,13.87
248,cacequi,0,BR,1570715930,56,-29.88,-54.83,81.16,6.44
249,grand gaube,75,MU,1570715931,60,-20.01,57.66,75.2,17.22
250,victor harbor,20,AU,1570715931,71,-35.55,138.62,54.0,10.29
251,mecca,1,SA,1570715931,51,21.43,39.83,87.33,14.94
252,kaitangata,100,NZ,1570715931,87,-46.28,169.85,45.0,25.01
253,ciparay,100,ID,1570715931,88,-6.71,106.36,75.16,1.54
254,shcherbinka,90,RU,1570715931,93,55.51,37.57,46.4,13.42
255,port blair,5,IN,1570715932,68,11.67,92.75,83.88,3.18
256,yetkul,100,RU,1570715932,69,54.83,61.59,39.42,10.14
257,coffs harbour,40,AU,1570715932,87,-30.3,153.13,57.2,8.05
258,greece,1,US,1570715932,81,43.21,-77.69,55.0,4.7
259,marsh harbour,64,BS,1570715932,74,26.54,-77.06,81.57,11.75
260,malanje,100,AO,1570715933,91,-9.54,16.35,67.55,1.33
261,kungurtug,0,RU,1570715933,53,50.6,97.53,24.17,1.02
262,mosalsk,100,RU,1570715933,93,54.49,34.98,49.51,14.81
263,egvekinot,15,RU,1570715934,86,66.32,-179.17,13.59,1.69
264,berlevag,75,NO,1570715934,80,70.86,29.09,41.0,4.7
265,aklavik,40,CA,1570715934,92,68.22,-135.01,33.8,2.24
266,pishin,0,PK,1570715935,18,30.58,67.0,67.37,6.62
267,zharkent,0,KZ,1570715935,42,44.17,80.0,62.1,8.17
268,pacific grove,1,US,1570715935,28,36.62,-121.92,57.99,12.75
269,nantucket,90,US,1570715935,93,41.28,-70.1,54.0,21.92
270,morro bay,90,US,1570715936,100,35.37,-120.85,51.01,7.82
271,kenai,90,US,1570715936,100,60.55,-151.26,42.8,9.17
272,shimoda,100,JP,1570715936,93,34.7,138.93,70.0,1.01
273,araouane,18,ML,1570715936,9,18.9,-3.53,99.99,9.95
274,eyl,0,SO,1570715936,84,7.98,49.82,80.98,9.06
275,hervey bay,40,AU,1570715937,72,-25.3,152.85,68.0,5.82
276,mazamet,90,FR,1570715937,52,43.49,2.38,73.99,10.29
277,esperance,0,AU,1570715937,87,-33.86,121.89,57.2,6.93
278,iglas,40,IN,1570715937,61,27.71,77.94,80.6,1.12
279,taiyuan,100,CN,1570715937,76,37.86,112.56,57.2,2.24
280,mandalgovi,98,MN,1570715938,49,45.76,106.27,36.16,14.24
281,naze,75,NG,1570715938,66,5.43,7.07,87.8,5.82
282,gat,40,SN,1570715938,66,14.69,-16.54,87.8,5.82
283,birin,40,NP,1570715938,83,26.89,88.07,77.0,2.24
284,sao felix do xingu,87,BR,1570715938,39,-6.64,-51.99,94.35,5.89
285,hrinova,40,SK,1570715939,47,48.58,19.53,59.0,6.93
286,saint-marc,49,HT,1570715939,71,19.1,-72.7,80.15,2.56
287,husavik,100,CA,1570715939,97,50.56,-96.99,35.01,10.0
288,alzamay,0,RU,1570715939,59,55.55,98.67,23.61,1.7
289,ballina,75,IE,1570715939,82,54.11,-9.15,59.0,16.11
290,tilichiki,100,RU,1570715940,76,60.47,166.1,30.07,12.47
291,mangai,92,CD,1570715940,65,-4.07,19.59,83.25,3.79
292,mutoko,99,ZW,1570715940,17,-17.4,32.23,90.39,7.55
293,kankon,40,IN,1570715940,78,15.02,74.02,82.4,2.24
294,barinitas,100,VE,1570715941,90,8.76,-70.41,57.06,3.83
295,businga,100,CD,1570715941,84,3.34,20.89,80.24,0.33
296,saint-ambroise,20,CA,1570715941,86,48.56,-71.32,43.0,1.77
297,maryborough,3,AU,1570715941,94,-25.54,152.7,55.94,2.39
298,saint-augustin,75,CA,1570715941,76,45.63,-73.98,52.0,5.82
299,general roca,100,AR,1570715942,55,-39.03,-67.58,60.8,4.7
300,namibe,70,AO,1570715942,86,-15.19,12.15,69.06,9.07
301,urubicha,0,BO,1570715942,18,-15.63,-63.08,106.81,0.7
302,krasnoyarskiy,85,RU,1570715942,63,51.97,59.9,41.85,13.08
303,nisia floresta,40,BR,1570715943,70,-6.09,-35.21,84.2,19.46
304,fort-shevchenko,3,KZ,1570715943,30,44.51,50.26,57.33,11.32
305,todos santos,5,MX,1570715943,73,23.45,-110.23,80.01,2.83
306,itoman,40,JP,1570715943,73,26.12,127.67,77.0,16.11
307,vila velha,40,BR,1570715943,52,-3.71,-38.6,87.8,16.11
308,mnichovo hradiste,75,CZ,1570715944,66,50.53,14.97,57.0,17.22
309,zaterechnyy,0,RU,1570715944,50,44.8,45.21,56.21,11.96
310,visby,20,SE,1570715944,71,57.64,18.3,55.99,10.29
311,hearst,34,CA,1570715944,68,49.69,-83.67,53.44,7.91
312,cortez,90,US,1570715944,18,37.35,-108.58,42.8,8.05
313,meulaboh,100,ID,1570715945,75,4.14,96.13,81.64,3.09
314,port hardy,5,CA,1570715945,92,50.7,-127.42,30.2,3.36
315,santa lucia,75,IT,1570715945,73,41.98,12.66,75.2,8.05
316,sinnamary,0,GF,1570715945,73,5.38,-52.96,82.04,18.18
317,palu,93,ID,1570715946,98,-0.9,119.87,66.99,1.88
318,moerai,100,PF,1570715946,65,-22.43,-151.33,67.86,11.48
319,iralaya,90,HN,1570715946,83,15.0,-83.23,80.6,11.41
320,mayskiy,0,RU,1570715947,70,43.63,44.06,58.66,6.25
321,port maria,20,JM,1570715947,69,18.37,-76.89,82.4,6.93
322,poum,75,MK,1570715947,40,41.28,20.71,73.4,2.24
323,batouri,76,CM,1570715947,86,4.44,14.36,78.84,2.45
324,oxilithos,20,GR,1570715947,69,38.58,24.12,79.0,8.05
325,dicabisagan,32,PH,1570715947,84,17.08,122.42,76.82,9.14
326,vallenar,49,CL,1570715948,54,-28.58,-70.76,63.21,10.39
327,vila franca do campo,20,PT,1570715948,53,37.72,-25.43,71.6,6.93
328,lompoc,90,US,1570715948,100,34.64,-120.46,59.0,9.17
329,radhanpur,0,IN,1570715948,45,23.83,71.61,85.73,4.51
330,bambanglipuro,85,ID,1570715949,91,-7.95,110.28,73.33,3.97
331,dilla,98,ET,1570715949,94,6.41,38.31,56.57,5.02
332,rani,0,IN,1570715949,32,25.35,73.31,80.04,5.22
333,vostok,100,RU,1570715949,86,46.45,135.83,48.45,3.8
334,sutysky,41,UA,1570715949,42,49.05,28.42,64.99,15.66
335,miranda,0,BR,1570715950,25,-20.24,-56.38,100.78,6.58
336,san quintin,0,PH,1570715950,88,17.54,120.52,72.84,3.31
337,aswan,52,EG,1570715950,14,24.09,32.9,107.6,5.82
338,mingshui,0,CN,1570715950,81,22.81,109.89,74.88,5.42
339,takayama,0,JP,1570715950,92,36.14,137.25,66.0,4.86
340,mirnyy,100,RU,1570715950,95,56.57,36.46,44.56,7.23
341,buraydah,20,SA,1570715951,27,26.33,43.97,98.6,11.41
342,iguape,100,BR,1570715951,64,-24.7,-47.56,77.85,4.47
343,puerto ayacucho,40,CO,1570715951,83,5.66,-67.63,80.6,1.77
344,yaan,77,NG,1570715951,80,7.38,8.57,82.72,2.61
345,ambon,75,FR,1570715952,72,47.55,-2.56,66.0,9.17
346,bushehr,0,IR,1570715952,50,28.97,50.84,95.0,4.7
347,hailar,0,CN,1570715952,44,49.2,119.7,26.42,8.18
348,orlik,20,PL,1570715952,81,53.95,17.74,53.01,14.99
349,ust-tsilma,100,RU,1570715952,89,65.44,52.15,33.67,6.96
350,nueve de julio,14,AR,1570715953,21,-31.67,-68.39,82.96,5.33
351,souillac,75,FR,1570715953,64,45.6,-0.6,69.01,12.75
352,manadhoo,100,MV,1570715953,75,5.77,73.38,81.99,9.61
353,poplar bluff,1,US,1570715953,77,36.76,-90.39,69.8,7.77
354,rio gallegos,20,AR,1570715953,51,-51.62,-69.22,37.4,35.57
355,charlottesville,90,US,1570715954,93,38.03,-78.48,60.01,3.82
356,kirakira,79,SB,1570715954,87,-10.46,161.92,75.22,5.43
357,camacha,40,PT,1570715954,64,33.08,-16.33,73.4,13.87
358,pingdingshan,77,CN,1570715954,78,33.74,113.3,63.39,5.11
359,santa maria,40,BR,1570715955,50,-16.02,-48.01,80.01,13.87
360,klaksvik,75,FO,1570715955,100,62.23,-6.59,44.6,17.22
361,danshui,11,CN,1570715955,78,22.81,114.46,84.0,11.18
362,boden,20,SE,1570715955,78,65.83,21.69,35.6,2.24
363,weatherford,90,US,1570715955,78,32.76,-97.8,79.0,12.75
364,lasa,20,CY,1570715955,65,34.92,32.53,82.4,13.87
365,perth,75,AU,1570715956,77,-31.95,115.86,64.0,5.82
366,cayenne,75,GF,1570715956,66,4.94,-52.33,86.0,8.05
367,glenwood springs,90,US,1570715956,86,39.55,-107.33,32.0,9.17
368,alice springs,0,AU,1570715956,14,-23.7,133.88,62.6,11.22
369,muros,20,ES,1570715957,60,42.77,-9.06,75.0,8.05
370,popondetta,100,PG,1570715957,95,-8.77,148.24,65.28,1.27
371,kamenskiy,97,RU,1570715957,59,50.89,45.49,52.81,10.58
372,manokwari,64,ID,1570715957,82,-0.87,134.08,71.06,6.66
373,beira,20,ES,1570715957,68,43.2,-8.36,73.0,5.82
374,makakilo city,20,US,1570715958,78,21.35,-158.09,80.6,4.07
375,aliaga,75,PH,1570715958,78,15.5,120.85,80.6,8.05
376,sibolga,100,ID,1570715958,98,1.74,98.78,72.41,0.73
377,california city,90,US,1570715958,25,35.13,-117.99,57.2,5.82
378,aldan,100,RU,1570715958,96,58.61,125.39,12.7,9.2
379,litovko,38,RU,1570715959,75,49.24,135.18,39.96,6.47
380,nemuro,100,JP,1570715959,80,43.32,145.57,59.22,11.68
381,rawson,100,AR,1570715959,50,-43.3,-65.11,60.21,16.94
382,hovd,0,NO,1570715959,70,63.83,10.7,51.01,2.24
383,keti bandar,0,PK,1570715960,71,24.14,67.45,83.5,10.85
384,doka,52,SD,1570715960,64,13.52,35.76,83.44,1.58
385,kawalu,89,ID,1570715960,87,-7.38,108.21,67.71,1.03
386,awjilah,100,LY,1570715960,18,29.14,21.3,93.25,24.24
387,sola,100,TZ,1570715960,31,-3.17,33.8,85.08,12.24
388,tura,0,RU,1570715960,81,64.27,100.22,13.98,2.13
389,coolum beach,33,AU,1570715961,89,-26.53,153.09,64.0,1.68
390,mahon,75,IE,1570715961,93,51.89,-8.4,60.01,17.22
391,zhigalovo,1,RU,1570715961,84,54.81,105.15,15.87,2.65
392,mabai,70,CN,1570715961,99,23.01,104.4,62.22,3.25
393,bandarbeyla,0,SO,1570715961,86,9.49,50.81,80.46,12.2
394,geraldton,40,CA,1570715962,93,49.72,-86.95,50.0,5.82
395,vanimo,82,PG,1570715962,72,-2.67,141.3,83.39,6.16
396,williamsburg,40,US,1570715962,82,37.27,-76.71,61.0,4.7
397,hualmay,24,PE,1570715962,54,-11.1,-77.61,67.08,8.01
398,biga,45,TR,1570715963,50,40.23,27.24,80.01,10.29
399,male,63,UA,1570715963,76,50.74,33.7,55.8,7.3
400,vila,100,IT,1570715963,72,45.18,8.4,71.01,10.29
401,nong kung si,0,TH,1570715963,74,16.65,103.3,82.4,3.36
402,matagami,75,NG,1570715964,66,9.67,8.4,86.0,14.99
403,katobu,74,ID,1570715964,90,-4.94,122.53,70.72,4.15
404,kinshasa,75,CD,1570715964,62,-4.32,15.31,87.8,5.82
405,whakatane,100,NZ,1570715964,96,-37.96,176.99,60.01,1.99
406,forbes,1,AU,1570715964,51,-33.38,148.01,52.0,4.4
407,vysha,100,RU,1570715965,95,53.85,42.38,47.23,10.63
408,pasni,0,PK,1570715965,71,25.26,63.48,81.88,8.49
409,ancud,90,CL,1570715965,100,-41.87,-73.83,50.0,13.87
410,jishou,100,CN,1570715965,89,28.26,109.7,66.79,3.73
411,bilibino,0,RU,1570715965,83,68.06,166.44,4.08,2.61
412,little current,1,CA,1570715966,93,45.98,-81.93,53.01,5.82
413,kavaratti,52,IN,1570715966,72,10.57,72.64,84.04,5.38
414,sovetskaya gavan,100,RU,1570715966,68,48.97,140.29,56.37,11.93
415,hermosillo,5,MX,1570715966,56,29.09,-110.96,71.01,5.82
416,fairbanks,90,US,1570715966,100,64.84,-147.72,37.4,2.02
417,skotterud,99,NO,1570715967,93,59.98,12.12,48.2,3.36
418,westport,90,US,1570715967,47,41.14,-73.36,61.0,27.51
419,arman,100,RU,1570715967,84,59.7,150.17,38.19,15.6
420,dubasari,40,MD,1570715967,31,47.26,29.16,75.2,8.05
421,hofn,20,IS,1570715968,57,64.25,-15.21,50.0,17.22
422,bathsheba,20,BB,1570715968,66,13.22,-59.52,86.0,11.41
423,vardo,40,US,1570715968,71,39.62,-77.74,57.0,6.93
424,skagen,100,SE,1570715968,81,58.6,13.44,53.6,5.82
425,general pico,47,AR,1570715969,39,-35.66,-63.75,84.51,14.09
426,mackay,20,CA,1570715969,85,53.65,-115.58,19.4,4.7
427,oranjestad,20,AW,1570715969,79,12.52,-70.03,84.2,16.11
428,at-bashi,0,KG,1570715969,72,41.17,75.81,27.46,2.8
429,kogon,0,UZ,1570715969,27,39.73,64.54,77.0,9.38
430,kununurra,36,AU,1570715970,47,-15.77,128.74,75.2,3.36
431,praya,40,ID,1570715970,83,-8.71,116.27,78.8,9.17
432,zambezi,97,ZM,1570715970,37,-13.55,23.12,83.03,9.6
433,kon tum,87,VN,1570715970,97,14.36,108.0,67.26,2.51
434,petatlan,75,MX,1570715970,83,17.52,-101.27,77.0,9.17
435,ejura,8,GH,1570715970,65,7.38,-1.37,86.41,4.19
436,mengyin,98,CN,1570715971,93,35.71,117.93,58.23,3.93
437,luanda,20,AO,1570715971,65,-8.83,13.24,82.4,11.41
438,kalabo,70,ZM,1570715971,22,-15.0,22.67,91.53,8.44
439,inhambane,75,MZ,1570715971,69,-23.87,35.38,77.0,8.05
440,wanning,75,AT,1570715972,93,48.64,13.53,57.0,11.41
441,garmsar,0,IR,1570715972,19,35.22,52.34,74.48,6.5
442,maniitsoq,39,GL,1570715972,52,65.42,-52.9,35.47,1.84
443,chernyshevskiy,100,RU,1570715972,89,63.01,112.47,15.17,6.84
444,fukue,75,JP,1570715972,78,35.03,136.69,73.99,6.93
445,vestmanna,75,FO,1570715973,100,62.16,-7.17,44.6,17.22
446,anchorage,90,US,1570715973,93,61.22,-149.89,43.0,10.29
447,kupang,43,ID,1570715973,78,-10.16,123.6,77.81,13.32
448,kaeo,100,NZ,1570715973,100,-35.1,173.78,61.0,22.02
449,saint george,20,GR,1570715974,73,39.45,22.34,73.4,2.73
450,nanpiao,11,CN,1570715974,42,41.1,120.75,54.16,7.46
451,sorland,40,NO,1570715974,65,67.67,12.69,44.6,12.75
452,sao filipe,96,CV,1570715974,82,14.9,-24.5,78.58,11.5
453,lesnica,75,RS,1570715974,63,44.65,19.31,66.2,5.82
454,lazaro cardenas,0,MX,1570715974,52,28.39,-105.62,73.04,7.1
455,buala,99,SB,1570715975,81,-8.15,159.59,78.08,4.59
456,porosozero,18,RU,1570715975,93,62.72,32.71,31.3,3.27
457,flinders,90,AU,1570715975,87,-34.58,150.85,59.0,6.93
458,swellendam,0,ZA,1570715975,42,-34.02,20.44,64.4,16.11
459,pemberton,20,AU,1570715975,90,-34.44,116.03,60.01,1.99
460,cabedelo,75,BR,1570715976,62,-6.97,-34.84,84.2,18.34
461,los zacatones,75,MX,1570715976,87,22.95,-102.05,51.8,7.71
462,cilegon,40,ID,1570715976,78,-6.02,106.05,80.6,6.93
463,kloulklubed,40,PW,1570715976,78,7.04,134.26,82.4,5.82
464,kyaikkami,67,MM,1570715976,74,16.08,97.57,84.13,7.27
465,zainsk,99,RU,1570715976,86,55.29,52.01,43.25,9.69
466,christchurch,100,NZ,1570715977,93,-43.53,172.64,51.01,8.05
467,huilong,96,CN,1570715977,89,31.15,106.5,61.45,5.8
468,nouadhibou,100,MR,1570715977,45,20.93,-17.03,84.2,9.17
469,mentakab,27,MY,1570715977,92,3.49,102.35,75.18,3.7
470,half moon bay,1,US,1570715978,15,37.46,-122.43,62.6,9.17
471,bay roberts,40,CA,1570715978,81,47.58,-53.28,53.01,6.93
472,roald,75,NO,1570715978,71,62.58,6.12,54.0,5.82
473,launceston,75,AU,1570715978,87,-41.43,147.14,46.99,8.05
474,marihatag,99,PH,1570715979,73,8.8,126.3,83.97,2.72
475,finschhafen,99,PG,1570715979,83,-6.6,147.85,79.79,8.27
476,asyut,63,EG,1570715979,28,27.18,31.19,96.8,11.41
477,ust-kuyga,34,RU,1570715979,95,70.0,135.55,-0.05,4.23
478,neyshabur,16,IR,1570715979,52,36.21,58.79,62.67,17.46
479,vuktyl,99,RU,1570715980,78,63.86,57.31,34.97,8.52
480,san ramon,7,NI,1570715980,70,12.92,-85.84,76.42,4.74
481,uvalde,90,US,1570715980,83,29.21,-99.79,80.01,9.17
482,sumbe,43,AO,1570715980,73,-11.2,13.84,78.55,8.46
483,bubaque,46,GW,1570715980,72,11.28,-15.83,82.69,7.37
484,mahenge,100,TZ,1570715981,75,-8.68,36.72,78.3,9.23
485,naousa,99,GR,1570715981,77,40.63,22.07,75.99,2.57
486,tonantins,100,BR,1570715981,69,-2.86,-67.77,82.81,1.23
487,puerto suarez,14,BO,1570715981,59,-18.96,-57.8,89.6,6.93
488,santiago de cao,90,PE,1570715981,87,-7.96,-79.24,60.8,5.82
489,kangasala,90,FI,1570715982,100,61.46,24.07,43.0,5.82
490,bintulu,75,MY,1570715982,100,3.17,113.03,75.2,3.36
491,sagua la grande,20,CU,1570715982,94,22.81,-80.07,78.8,4.7
492,kontagora,79,NG,1570715982,76,10.4,5.47,82.45,4.73
493,chililabombwe,100,ZM,1570715982,31,-12.37,27.84,81.81,3.84
494,hamilton,1,CA,1570715983,100,43.26,-79.87,60.01,10.29
495,florianopolis,0,BR,1570715983,64,-27.6,-48.55,81.0,14.99
496,rosarito,75,CO,1570715983,93,4.91,-75.23,73.4,4.7
497,shasta lake,1,US,1570715983,63,40.68,-122.36,55.4,7.94
498,seoul,75,KR,1570715983,93,37.57,126.98,60.8,1.12
499,santiago del estero,0,AR,1570715984,23,-27.8,-64.26,94.66,21.24
500,huntsville,90,US,1570715984,73,34.73,-86.59,72.0,9.17
501,genhe,35,CN,1570715984,45,50.78,121.52,18.82,4.09
502,yulara,0,AU,1570715984,9,-25.24,130.99,77.0,9.17
503,muscat,20,OM,1570715984,52,23.6,58.55,91.4,8.05
504,port keats,100,AU,1570715985,70,-14.25,129.55,80.83,4.3
505,saint-pierre,20,FR,1570715985,63,48.95,4.24,64.0,17.22
506,nagato,0,JP,1570715985,82,34.35,131.14,68.0,4.7
507,monze,99,ZM,1570715986,25,-16.28,27.48,85.48,1.65
508,huamachuco,93,PE,1570715986,49,-7.82,-78.05,53.1,7.5
509,nuevo progreso,1,US,1570715986,74,26.05,-97.95,84.99,13.87
510,borogontsy,90,RU,1570715986,97,62.67,131.17,17.89,4.14
511,mapastepec,71,MX,1570715986,68,15.44,-92.9,83.08,3.11
512,vienna,75,AT,1570715986,42,48.21,16.37,64.99,18.34
513,san patricio,0,PY,1570715987,38,-26.98,-56.83,89.19,9.35
514,bage,100,IN,1570715987,91,12.95,75.85,69.84,7.35
515,dzhebariki-khaya,100,RU,1570715987,93,62.22,135.8,27.21,4.71
516,korem,100,ET,1570715987,88,12.51,39.52,58.21,5.77
517,leninskoye,0,RU,1570715987,60,54.82,82.85,38.82,9.19
518,haines junction,100,CA,1570715988,93,60.75,-137.51,27.07,12.04
519,fort morgan,90,US,1570715988,79,40.25,-103.8,26.6,14.99
520,skelleftea,90,SE,1570715988,93,64.75,20.95,37.4,3.36
521,orthez,20,FR,1570715988,49,43.49,-0.77,71.6,3.36
522,kutum,40,SD,1570715988,23,14.2,24.66,89.17,15.14
523,almaty,20,KZ,1570715989,54,43.24,76.95,59.0,4.47
524,inuvik,75,CA,1570715989,86,68.36,-133.71,33.8,2.24
525,nelson bay,40,AU,1570715989,100,-32.72,152.14,59.0,5.82
526,alugan,100,PH,1570715989,90,12.22,125.48,77.0,6.89
527,pangody,100,RU,1570715989,85,65.85,74.49,43.32,22.24
528,nushki,0,PK,1570715990,14,29.55,66.02,78.3,8.11
529,abu kamal,0,SY,1570715990,20,34.45,40.92,82.11,1.59
530,pamekasan,45,ID,1570715990,85,-7.16,113.47,74.93,6.92
531,lahij,73,YE,1570715990,62,13.06,44.88,84.78,12.22
532,katsuura,75,JP,1570715990,78,33.93,134.5,71.6,3.36
533,dingle,100,PH,1570715991,90,11.0,122.67,74.57,3.27
534,hoganas,20,SE,1570715991,71,56.2,12.56,57.99,12.75
535,shitanjing,16,CN,1570715991,20,39.23,106.34,57.0,4.0
536,dasoguz,0,TM,1570715991,48,41.84,59.97,66.2,9.17
537,kodinsk,18,RU,1570715991,70,58.6,99.18,21.52,1.66
538,athens,20,GR,1570715992,69,37.98,23.73,79.0,4.7
